name,rating,price,yelp_review_count,yelp_rating,longitude,latitude,delivers,location
1 Or 8,5.4,3,402,4,-73.9703551,40.6896859,FALSE,Fort Greene
10 Corso Como,5.8,3,72,4,-74.00278,40.707053,FALSE,Seaport District
12 Chairs,7,2,523,4,-74.0024,40.72759,TRUE,Hudson Square
15 Fox Place,7.6,3,115,4.5,-74.07251,40.73371,FALSE,Jersey City
2nd Floor Bar & Essen,7.9,3,71,4,-73.95436,40.76954,FALSE,Upper East Side
3 Guys Restaurant,7.2,2,93,3,-73.9640731811523,40.7741355895996,TRUE,Upper East Side
886,7.8,2,347,4,-73.98873,40.72877,TRUE,NoHo
ABC Cocina,8.4,3,902,4,-73.9892806964011,40.7379699846239,FALSE,Flatiron district
ABC Kitchen,7.4,4,2971,4,-73.989472,40.738085,FALSE,Flatiron district
Abuqir,8.3,1,127,5,-73.9110794,40.7683,TRUE,Astoria
Aburiya Kinnosuke,8.2,4,750,4,-73.972274,40.752583,FALSE,Midtown East
Acapulco Deli,7.5,1,5,3.5,-73.9271007,40.8649972,FALSE,Harlem
Achilles Heel,8.6,3,75,3.5,-73.95969,40.73318,FALSE,Greenpoint
Acme,6.7,3,402,3,-73.994069,40.727232,TRUE,NoHo
Agern,7.6,4,205,4,-73.9780961338684,40.7525286099337,FALSE,Murray Hill
Ai Fiori,7.7,4,1261,4,-73.9837835,40.7500752,FALSE,Koreatown
Aita,7.4,2,254,4,-73.966629,40.686412,FALSE,Fort Greene
Akdeniz,7.5,2,390,4,-73.9800018306885,40.756519714277,TRUE,Steinway
Al Di La,9,2,890,4,-73.981340475038,40.675332643247,FALSE,Park Slope
Aldea,5.7,3,609,4,-73.993801,40.738745,TRUE,Flatiron district
Almayass,7.9,3,428,4,-73.9887133176,40.7394642504,TRUE,Flatiron district
Amali,7.6,4,390,4,-73.9686296877489,40.7633557384716,TRUE,Midtown East
American Cut,7.9,4,583,4,-74.00994,40.71915,TRUE,TriBeCa
Ammazzacaffè,7.9,2,158,4.5,-73.9446243,40.7113172,TRUE,Williamsburg
An Choi,7.3,2,500,3.5,-73.99042,40.71798,TRUE,Little Italy
Añejo,7,3,383,4,-74.004417,40.7193829,TRUE,SoHo
Anella,7.9,2,416,4,-73.95786,40.73327,TRUE,Greenpoint
Angkor Cambodian Bistro,8.2,2,284,4.5,-73.95914,40.76226,FALSE,Midtown East
Antica Pesa,6.9,3,373,3.5,-73.95865,40.71884,TRUE,Williamsburg
ápizz,5.5,3,384,4,-73.99154,40.71456,FALSE,Chinatown
Aquagrill,7.9,3,1360,4,-74.0037010931698,40.7253545576709,FALSE,SoHo
Arcade Bakery,7.9,1,227,4.5,-74.0066022711227,40.7168697865532,FALSE,TriBeCa
Archie’s Bar & Pizza,7.7,2,6099,4,-73.9955956044561,40.7215934960083,TRUE,NoLIta
Ardesia,7,2,359,4,-73.9914581179619,40.7660831005947,FALSE,Times Square Theatre District
Artichoke,5,1,3958,4,-73.9839056828882,40.7321124557704,TRUE,Gramercy Park
Atoboy,7.6,3,361,4.5,-73.98456,40.74364,FALSE,NoMad
Atomix,8.8,4,74,4.5,-73.98286,40.74421,FALSE,Kips Bay
Au Cheval,8.3,3,469,4.5,-74.0015522,40.7183878,FALSE,Little Italy
Augustine,8.2,3,246,4,-74.006814,40.71141,FALSE,Financial District
Aurora,7.6,3,598,4,-73.964757,40.715621,TRUE,Williamsburg
Avenida Cantina,1.7,1,235,3.5,-73.983009,40.722236,FALSE,East Village
Ayada Thai,8.6,2,61,4,-74.00466,40.74222,TRUE,Meatpacking District
Babs,8.2,3,34,3.5,-74.0018033981323,40.728252213994,FALSE,Hudson Square
Babu Ji,7.3,3,223,3.5,-73.99315,40.73469,FALSE,Union Square
Balade,7.7,2,699,4,-73.983001,40.730251,TRUE,East Village
Bamonte’s,7.7,3,346,4,-73.951174,40.716579,FALSE,Williamsburg
Bangklyn East Harlem,7.6,2,110,4.5,-73.94307,40.7903,TRUE,Upper East Side
Bar Beau,7.4,2,51,4.5,-73.95009,40.71695,FALSE,Williamsburg
Bar Bolinas,7.6,3,121,4,-73.967389,40.693499,TRUE,Fort Greene
Bar Boulud,8,3,876,3.5,-73.9818808860381,40.7718443592464,FALSE,Times Square Theatre District
Bar Jamón,7.7,4,287,4,-73.9870300292969,40.7358627319336,FALSE,Gramercy Park
Bar Pitti,7.4,3,1024,3.5,-74.002153,40.729047,FALSE,Greenwich Village
Bar Primi,7.7,2,626,3.5,-73.991714,40.725639,TRUE,NoHo
Bar San Miguel,7.6,2,137,4,-73.9938279,40.68134,TRUE,Carroll Gardens
Bar Sardine,8,2,231,4,-74.0027010019169,40.7343842119037,FALSE,Greenwich Village
Barbounia,4.9,4,1260,3.5,-73.98804,40.7382,FALSE,Flatiron district
Barbuto,8,3,888,4,-74.0080020711638,40.7377203192966,FALSE,Meatpacking District
Barney Greengrass,7.8,2,748,4,-73.9745054748688,40.7879308300971,FALSE,Upper West Side
Barrio Chino,7.8,2,1108,4,-73.990026,40.718022,FALSE,Lower East Side
Bassanova Ramen,7.7,2,755,3.5,-73.9980477279514,40.716330371823,TRUE,Chinatown
Beaubourg,4.8,3,277,3,-74.01533,40.71156,FALSE,Financial District
Beauty & Essex,6.4,4,3496,4,-73.98677,40.72037,TRUE,Lower East Side
BEC,7.6,2,256,3.5,-74.0008131,40.7418029,TRUE,Chelsea
Beebe’s,7.2,2,30,4.5,-73.9823734,40.7246453,FALSE,East Village
Bell Book & Candle,4.5,3,235,3.5,-74.00086,40.73465,TRUE,Greenwich Village
Bella Blu,7.6,4,248,3.5,-73.962791,40.769207,TRUE,Upper East Side
Belle Reve,7.5,2,165,4,-74.0041143883606,40.7194897,TRUE,SoHo
Benjamin Steakhouse,7.4,4,1196,4,-73.97896,40.7518,TRUE,Murray Hill
Beyoglu,7.7,2,1141,4,-73.9562399,40.7754199,FALSE,Upper East Side
Beyond Sushi,7.5,1,916,4.5,-73.98588,40.7329,TRUE,Gramercy Park
Bill's Bar & Burger,7.3,3,562,3.5,-74.0141804516316,40.709363010959,TRUE,Financial District
BK Jani,8.6,2,338,4.5,-73.945303,40.711757,TRUE,Williamsburg
Black Seed Bagels,8.2,2,695,3,-73.99474,40.72091,TRUE,NoLIta
Blanca,9.3,4,169,4,-73.933581,40.7050708681994,FALSE,Bushwick
Blind Tiger,7.4,2,887,4,-74.003223,40.731926,FALSE,Greenwich Village
BLT Fish Shack,5.2,3,1440,4,-74.003463,40.731734,FALSE,Greenwich Village
BLT Steak,7.1,4,404,4,-73.970335,40.761162,TRUE,Midtown East
Blue Hill at Stone Barns,9.7,4,729,4.5,-73.828956,41.104023,FALSE,Parkchester
Blue Hill New York,8.6,4,999,4.5,-73.9996931018524,40.7320640251595,FALSE,Greenwich Village
Blue Ribbon Brasserie,9,4,935,4.5,-74.003027,40.725456,FALSE,SoHo
Blue Ribbon Sushi Bar & Grill,7.8,4,753,4,-73.9831978922043,40.7674948014194,FALSE,Times Square Theatre District
Blue Ribbon Sushi Izakaya,7.7,3,514,4,-73.9882245327093,40.7220839812692,FALSE,NoLIta
Bobo,5.1,4,538,4,-74.0026245117188,40.734489440918,TRUE,Greenwich Village
Bocca di Bacco,7.2,3,280,3.5,-73.991703,40.7602649,TRUE,Times Square
Bocce Union Square,7.4,2,88,4,-73.9905564301636,40.7367183711943,TRUE,Union Square
Bohemian,8.4,3,759,4.5,-73.99236,40.72639,FALSE,NoHo
Bonnie's Grill,7.2,1,697,4,-73.982406,40.674302,TRUE,Park Slope
Boqueria,7.1,2,1005,4,-74.0021299,40.724912,TRUE,SoHo
Bouley At Home,5.9,4,131,4,-73.9921929272335,40.7410869985191,FALSE,Flatiron district
Boulton & Watt,6.8,3,680,4,-73.986439,40.7224963,TRUE,East Village
Boulud Sud,4.7,4,748,4,-73.9816256082283,40.7718614234522,FALSE,Times Square Theatre District
Bowery Diner,5.8,2,550,4,-73.9920476876,40.7263350655,FALSE,NoHo
Bozu,6,2,826,4,-73.95749,40.7129,FALSE,Williamsburg
Bread And Salt,8.6,1,105,4,-74.0447338297963,40.7435428136099,TRUE,Jersey City
Bricolage,7.6,3,467,4,-73.97975,40.67792,FALSE,Gowanus
Brindle Room,4.5,2,1026,4,-73.98271,40.72829,TRUE,East Village
Brodo,7.1,2,165,4,-73.98327,40.7300899,TRUE,East Village
Brooklyn Cider House,8,2,216,4,-73.9272699,40.70516,TRUE,Bushwick
Brooklyn Crab,7,2,1004,3,-74.016568,40.6752649,FALSE,Carroll Gardens
Bruno Pizza,7.2,3,207,4,-73.98736,40.73226,TRUE,Union Square
Bubby's,6.9,2,1377,3.5,-74.0083092,40.7198118,TRUE,TriBeCa
Bukhara Grill,8.1,3,547,3.5,-73.97028,40.75501,TRUE,Midtown East
Burger & Barrel,7.5,3,824,3.5,-73.99793,40.7258,TRUE,NoLIta
Burger & Lobster,6.5,2,5442,4,-73.99344,40.74007,TRUE,Flatiron district
Burger Joint,8.7,1,2313,3.5,-73.978533363932,40.7642604687359,TRUE,Times Square Theatre District
Buttermilk Channel,8.2,3,1885,4,-73.999059,40.675919,FALSE,Carroll Gardens
Cafe Altro Paradiso,7.3,3,149,3.5,-74.00489,40.72549,FALSE,Hudson Square
Cafe Clover,7.6,3,306,3.5,-74.0027698391672,40.7295313881459,TRUE,Greenwich Village
Cafe Cluny,7.9,3,718,4,-74.003966,40.737385,TRUE,West Village
Cafe Colette,6.9,3,365,3.5,-73.957565,40.719747,TRUE,Williamsburg
Café Cortadito,4.5,2,880,3,-73.982784589542,40.722483112365,TRUE,East Village
Cafe Gitane,7.1,2,713,4,-73.9946175625656,40.7231802723335,TRUE,NoLIta
Café Habana,8.2,1,3154,4,-73.994171,40.722998,TRUE,NoLIta
Cafe Luxembourg,5.1,4,487,4,-73.98312,40.77741,FALSE,Upper West Side
Caffè Storico,7.1,3,201,4,-73.973975,40.779469,FALSE,Upper West Side
Camperdown Elm,7.7,3,112,4.5,-73.98454,40.66312,FALSE,Park Slope
Candle Cafe,7.6,2,911,4,-73.959146,40.771434,TRUE,Upper East Side
Candle Cafe West,7.5,3,396,4,-73.97514,40.79051,TRUE,Upper West Side
Carbone,9.4,4,1003,4,-74.0001497,40.728,FALSE,SoHo
Casa Enrique,9,3,1184,4,-73.954350367693,40.743404338358,TRUE,Long Island City
Casa Mono,8.6,4,1221,3.5,-73.9871550967319,40.7359281440206,FALSE,Gramercy Park
Casellula,7.3,3,907,4,-73.98835,40.76499,TRUE,Times Square Theatre District
Cask Bar + Kitchen,4,3,1348,4,-73.979004,40.745414,TRUE,Kips Bay
Catch,7.8,4,2299,3.5,-74.006342,40.740234,TRUE,Meatpacking District
Cathédrale,5.6,3,121,4,-73.98951,40.7316,FALSE,NoHo
Celeste,7.2,3,894,3.5,-73.97599,40.78666,FALSE,Upper West Side
Celestine,7.6,3,217,4,-73.987975,40.704676,FALSE,Fulton Ferry
Cervo’s,7.6,2,28,3.5,-73.9854371,40.71429,FALSE,Lower East Side
Chavela’s,7.9,2,1054,4,-73.957267,40.673484,TRUE,Prospect Heights
Chef’s Table At Brooklyn Fare,9.4,4,520,4.5,-73.9966090932068,40.7561930774282,FALSE,Hudson Yards
Cherry Point,7.7,3,142,4.5,-73.9511575076571,40.7244954175426,FALSE,Greenpoint
Chez Ma Tante,8.5,2,164,4.5,-73.9574290439961,40.7268966108951,FALSE,Greenpoint
Chilo's,8.3,1,217,4,-73.95696,40.68835,FALSE,Prospect Heights
Chinese Tuxedo,6.8,3,276,3.5,-73.99804,40.71433,FALSE,Chinatown
Ciccio,7.7,3,281,4.5,-74.0034471165676,40.7263263267119,FALSE,SoHo
City Vineyard,7.5,2,831,4,-74.0118093,40.7205582,TRUE,TriBeCa
Clinton St. Baking Company,7.8,2,26,3.5,-73.991773,40.703717,FALSE,Fulton Ferry
Clover Club,7.5,2,766,4,-73.9921875,40.6846046447754,TRUE,Cobble Hill
Clyde Frazier's Wine and Dine,7,3,560,3.5,-73.9979356060821,40.756784795428,TRUE,Hudson Yards
Coco Pazzo,6.8,2,105,4,-74.00143,40.72596,TRUE,SoHo
Cocoron,8.7,2,993,4,-73.99305,40.72031,FALSE,NoLIta
Colina Cuervo,8.2,2,165,4.5,-73.9503035730164,40.6713243870099,TRUE,Crown Heights
Colonia Verde,6,3,159,4,-73.970703125,40.6897354125977,FALSE,Fort Greene
Colonie,8,3,573,4,-73.9958,40.6909,FALSE,Cobble Hill
Community Food & Juice,7.6,3,893,3.5,-73.9656753540039,40.8057975769043,FALSE,Harlem
Contra,8.6,3,322,4,-73.989063,40.719878,FALSE,NoLIta
Cookshop,8.4,3,2095,4,-74.0056084,40.7454251,TRUE,Chelsea
Coppelia,7,1,1347,4,-73.99995,40.73897,TRUE,West Village
Corkbuzz Wine Bar,2.5,4,399,4,-73.9931414,40.735088,FALSE,Union Square
Corner Bistro,8.4,1,1514,3.5,-74.00377,40.73805,FALSE,West Village
Cosme,8.7,3,1055,3.5,-73.988428,40.739691,TRUE,Flatiron district
Cotenna,7.5,2,402,4,-74.00357,40.72903,TRUE,Hudson Square
Court Street Grocers,8,2,274,4.5,-73.998717,40.676244,TRUE,Carroll Gardens
Covina,8.2,3,346,4.5,-73.9832149,40.7423054,FALSE,Kips Bay
Cowgirl Sea-Horse,4.5,2,583,4,-74.0004532,40.7081358,TRUE,Seaport District
Craftbar,8.4,3,1848,4.5,-73.986557,40.726373,FALSE,East Village
Crave Fishbar,8.3,3,721,4,-73.968683,40.755136,TRUE,Midtown East
Crif Dogs,7.5,1,2100,4,-73.983718,40.727157,TRUE,East Village
Crispo,7.7,3,967,4,-74.0016882,40.7392469,FALSE,Meatpacking District
Crown Shy,9.1,3,267,4.5,-74.0076944,40.7063449,FALSE,Financial District
Cull & Pistol,7.2,3,636,4,-74.0059285394953,40.7426589397899,FALSE,Meatpacking District
Da Umberto,7.9,4,165,4,-73.9958267211914,40.7396659851074,FALSE,Flatiron district
Daily Provisions,8.4,2,395,4.5,-73.9876685,40.73768,FALSE,Gramercy Park
Dan And John's Wings,8,1,352,4,-73.9853134,40.7278557,TRUE,East Village
Daniel,8.9,4,1587,4.5,-73.967607,40.7667736797858,FALSE,Midtown East
Danji,8.1,2,1008,4,-73.98686,40.764,FALSE,Times Square Theatre District
Davelle,8.4,2,121,4,-73.98605,40.71852,TRUE,Lower East Side
David Burke Kitchen,6,4,195,4,-73.96714,40.76436,TRUE,Midtown East
Death & Co,7.8,3,1515,4,-73.9847,40.72589,FALSE,East Village
Defonte's,8.3,1,329,4.5,-74.0053691263199,40.6789444357833,FALSE,Carroll Gardens
Del Posto,8.8,4,1440,4,-74.007533013261,40.7434155953035,FALSE,Meatpacking District
Denino’s,8.2,2,705,4,-74.1402754933448,40.6302266718896,TRUE,Stapleton
Desnuda,7,2,393,4,-73.9843,40.726255,FALSE,East Village
Di An Di,8.6,2,170,4,-73.95827,40.72969,TRUE,Greenpoint
Di Fara Pizza,9,2,3434,4,-73.961531,40.625093,TRUE,Midwood
Dim Sum Go Go,7.8,2,780,3.5,-73.9977319419107,40.7132415735622,TRUE,Chinatown
Dimes,6.2,3,254,3.5,-73.991539,40.714973,FALSE,Chinatown
Diner,8.8,3,746,4,-73.96559,40.71069,FALSE,Williamsburg
Dinosaur Bar-B-Que,7.7,2,1627,3.5,-73.9838929,40.6776201,TRUE,Gowanus
Dirt Candy,8.1,4,651,4,-73.9907183,40.7179075,FALSE,Little Italy
Dirty Bird To-Go,7.2,1,191,3,-74.01004,40.71599,TRUE,TriBeCa
Distilled,4.9,3,774,4,-74.0062975,40.7189994,TRUE,TriBeCa
Docks Oyster Bar & Seafood Grill,6.7,3,629,3.5,-73.9751169755325,40.7495410989218,TRUE,Murray Hill
Dojo Izakaya,6.8,2,37,4.5,-73.9995299,40.7146,FALSE,Chinatown
Dokebi,7.5,2,376,3.5,-73.9603,40.71421,TRUE,Williamsburg
Domodomo,7.7,3,1093,4.5,-74.00167,40.72803,FALSE,Hudson Square
Don Angie,8.4,3,315,4.5,-74.00197,40.73778,FALSE,West Village
Don Antonio,5.7,3,1426,4,-73.986708,40.762711,TRUE,Times Square Theatre District
Dos Caminos Meatpacking,3.5,3,1014,3,-74.0054753422738,40.7404330511257,TRUE,Meatpacking District
Ducks Eatery,4.6,2,623,4,-73.9846268,40.7306252,FALSE,East Village
Dudley's,7.1,3,707,4,-73.99042,40.71798,TRUE,Little Italy
Dylan Prime,7.3,4,550,4,-74.0098128,40.7211087,FALSE,TriBeCa
Earl’s Beer & Cheese,8,1,88,4,-73.9488606,40.7120245,TRUE,Williamsburg
East Harlem Bottling Co.,7.5,2,169,4,-73.9455429167249,40.79293791199,FALSE,Harlem
Eataly: La Birreria,7.7,2,5494,4,-73.989716662832,40.74195877796,FALSE,Flatiron district
Eataly: La Pizza & Pasta,6.6,2,6099,4,-73.9955956044561,40.7215934960083,TRUE,NoLIta
Ed's Lobster Bar,6.6,3,958,4,-73.997529,40.722079,TRUE,NoLIta
Edi And The Wolf,7.6,2,405,4,-73.97869,40.72384,FALSE,East Village
Edie Jo’s,7.2,2,46,3.5,-73.96056,40.65792,TRUE,Ditmas
Edward's Restaurant,7.2,2,230,3.5,-74.008369,40.716972,TRUE,TriBeCa
Egg,8,2,414,3.5,-73.961681,40.716753,FALSE,Williamsburg
Egg Shop,7.6,1,1117,4,-73.9952510689421,40.7204574688656,TRUE,Little Italy
Eisenberg’s Sandwich Shop,7.2,1,616,3.5,-73.99011,40.74114,TRUE,Flatiron district
El Almacén,8.2,2,648,4,-73.9564,40.71679,TRUE,Williamsburg
El Camion,3.5,2,691,4,-73.98105,40.7291,TRUE,East Village
El Cortez,7.5,2,103,3,-73.9330826,40.7070999,TRUE,Bushwick
El Floridita Restaurant,7.5,1,112,3.5,-73.9378327131271,40.8471171674521,TRUE,Harlem
El Quinto Pino,8.1,3,293,3.5,-74.00124,40.74743,TRUE,Chelsea
El Toro Blanco,4.7,3,389,3.5,-74.00277,40.72902,TRUE,Hudson Square
Elephant & Castle,7.9,2,536,4,-74.000729,40.736214,FALSE,Greenwich Village
Eleven Madison Park,9.2,4,2180,4.5,-73.9872074872255,40.7416907417333,FALSE,Flatiron district
Elias Corner,8,1,191,3.5,-73.9158142188523,40.7722769546621,FALSE,Astoria
Emily,9.1,2,772,4,-73.96643,40.68351,FALSE,Prospect Heights
Emily West Village,8,2,625,4,-74.0038400073579,40.729330068469,FALSE,Hudson Square
Emmy Squared,8.4,2,184,4,-73.98672,40.72598,FALSE,East Village
Empellón,6.9,3,361,4,-73.97473,40.75971,TRUE,Midtown East
Empellon Al Pastor,8,2,250,3.5,-73.98336,40.72668,TRUE,East Village
Empellon Taqueria,7.4,3,699,3.5,-74.0030294,40.7341219,TRUE,Greenwich Village
Empire Diner,7.3,2,206,3.5,-74.00429,40.74722,TRUE,Chelsea
Employees Only,7.2,3,1452,4,-74.00617,40.73343,TRUE,West Village
EN Japanese Brasserie,7.8,3,1247,4,-74.00698,40.7306,TRUE,Hudson Square
Epistrophy Cafe,7.2,2,449,3.5,-73.995401,40.721202,TRUE,NoLIta
Esca,7.6,3,716,3,-73.9923787862062,40.7591492682695,FALSE,Times Square
Esme,7.7,2,338,4.5,-73.9549667724914,40.7332033928175,TRUE,Greenpoint
Esperanto,7.5,2,695,3.5,-73.978054,40.725474,TRUE,East Village
Evelina,7.9,3,164,4.5,-73.971003,40.689722,TRUE,Fort Greene
Excuse My French,7.4,2,282,4.5,-73.98981,40.71844,TRUE,Lower East Side
Extra Fancy,7.8,3,361,3.5,-73.9579174570699,40.7144643419191,TRUE,Williamsburg
Extra Virgin,7.8,3,1244,3.5,-74.0031888223197,40.7353962496717,TRUE,West Village
Fanelli Cafe,7.7,1,374,3.5,-73.99878,40.72457,FALSE,NoLIta
Farida,8,2,305,4,-73.99441,40.75568,TRUE,Hudson Yards
Faro,7.2,3,280,4,-73.922839,40.707407,FALSE,Bushwick
Faun,8.1,3,149,4,-73.968883,40.678271,FALSE,Prospect Heights
Feast,7.3,2,469,4,-73.9881274,40.7325189,FALSE,Union Square
Fedora,8.5,3,365,4,-74.00306,40.73457,FALSE,Greenwich Village
Ferris,6,3,172,4,-73.98948,40.74631,FALSE,NoMad
Fiaschetteria Pistoia,7.7,2,166,4,-73.9773,40.72666,FALSE,East Village
Fiat Café,6.8,1,574,4,-73.995689,40.721433,TRUE,NoLIta
Fish,5.8,2,1440,4,-74.003463,40.731734,FALSE,Greenwich Village
Fish Market,7,2,547,4.5,-74.00192,40.70717,FALSE,Seaport District
Five Leaves,7,2,1599,4,-73.95159863632,40.72371830945,FALSE,Greenpoint
Fletcher's Brooklyn BBQ,6.8,2,7,3,-74.003509,40.707019,FALSE,Seaport District
Flex Mussels,7.9,3,904,4,-73.999661,40.737437,TRUE,Greenwich Village
Flora Bar,8.7,3,113,3.5,-73.963836,40.773406,FALSE,Upper East Side
Fort Defiance,7.5,2,351,4,-74.0135040283203,40.6766128540039,FALSE,Carroll Gardens
Frangos Peri Peri,7.3,1,51,4.5,-73.979444,40.727787,TRUE,East Village
Frank,7.4,3,685,3.5,-73.9887172038649,40.7268483205383,TRUE,NoHo
Frankel’s Delicatessen,8.4,2,244,4,-73.9509979,40.723826,TRUE,Greenpoint
Fred's at Barneys NY,7.4,4,1717,3.5,-73.9783795227192,40.7641277134065,FALSE,Times Square Theatre District
Freek’s Mill,7.6,3,386,4,-73.96869,40.67713,FALSE,Prospect Heights
Freemans,8.2,3,2055,4,-73.992466,40.721988,FALSE,NoLIta
Galli,7.7,2,930,4,-74.00127,40.72161,TRUE,SoHo
Gaonnuri,6.8,3,817,3.5,-73.98802,40.74757,FALSE,Koreatown
Garden Cafe,7,2,232,3.5,-73.920263,40.8681059,TRUE,Parkchester
Gato,7.3,3,1151,4,-73.9951947,40.7255312,FALSE,NoLIta
Gemma,6.2,3,658,3.5,-73.99166,40.72609,FALSE,NoHo
General Deb’s,7.7,2,60,3,-74.005192,40.728279,TRUE,Hudson Square
Gertie,7.4,2,72,4,-73.9555675,40.712389,TRUE,Williamsburg
Giuseppina’s,7.3,2,312,4.5,-73.9907741546631,40.6603430973463,FALSE,Park Slope
Glady’s,7.7,2,515,3.5,-73.957887,40.671705,FALSE,Prospect Heights
Glasserie,7.1,3,357,4,-73.9560697,40.7376154,FALSE,Greenpoint
Glaze Teriyaki Grill,7.7,1,131,3.5,-73.977183,40.763187,TRUE,Times Square Theatre District
Glou,7.5,2,32,4.5,-73.95406,40.662809,FALSE,Crown Heights
Goat Town,6.8,3,2180,4.5,-73.9872074872255,40.7416907417333,FALSE,Flatiron district
Gohan,7.3,2,47,4,-73.9917685836554,40.7150115072727,TRUE,Chinatown
Golden Diner,8.7,2,136,4.5,-73.994,40.71244,TRUE,Chinatown
Good Enough To Eat,7,2,1424,3.5,-73.9727859590175,40.7859436042416,TRUE,Upper West Side
Gordo’s Cantina,6.5,2,215,4,-73.91764,40.70489,TRUE,Bushwick
Gotan,7.9,2,380,4,-74.006607,40.719255,TRUE,TriBeCa
Gotham Bar And Grill,7.1,4,2890,4.5,-73.98825,40.73844,FALSE,Flatiron district
Gramercy Tavern,9.3,4,2890,4.5,-73.98825,40.73844,FALSE,Flatiron district
Gran Electrica,8.1,3,473,3.5,-73.99314,40.7027,FALSE,Fulton Ferry
Gran Tivoli,6.9,3,55,4,-73.99783,40.72104,FALSE,Little Italy
Grand Banks,7.1,3,429,4,-74.0158861928891,40.7203368579858,FALSE,TriBeCa
Grand Central Oyster Bar,7.7,3,1709,3,-73.9773735668119,40.7528172354909,FALSE,Murray Hill
Green Garden Village,6.9,2,43,4,-73.995878,40.7189831,FALSE,Little Italy
Gristmill,7.8,2,224,4.5,-73.9824806441803,40.6736889031443,FALSE,Park Slope
Haenyeo,7.8,2,117,4,-73.98116,40.67519,TRUE,Park Slope
Han Dynasty,7.9,2,271,4,-73.9825977757573,40.6911319610036,TRUE,Downtown Brooklyn
Hanjan,8.1,3,423,4,-73.9905130318771,40.7441830642509,FALSE,NoMad
Hanoi House,8.6,2,488,4,-73.98357,40.72698,FALSE,East Village
Hao Noodle & Tea,7.3,2,734,4,-73.9998929006093,40.7334863190479,TRUE,Greenwich Village
Harding's,6,3,361,4,-73.9887163,40.7393229,TRUE,Flatiron district
Harlem Shake,7.5,1,957,3.5,-73.9464158056276,40.8070988060148,TRUE,Harlem
Hart’s,8.3,3,5,4,-73.981628,40.757371,FALSE,Steinway
HaSalon,7,4,76,3,-73.9921808797062,40.7648145508807,FALSE,Times Square Theatre District
Hatsuhana,7.8,4,1338,4,-73.97692,40.75703,TRUE,Midtown East
Hearth,7.9,4,718,4,-73.983225,40.730006,FALSE,East Village
Hell's Kitchen,7.2,3,411,4,-73.9884334000586,40.7638823425707,TRUE,Times Square Theatre District
Her Name is Han,8.8,3,1192,4,-73.98473,40.74626,TRUE,Koreatown
Hide-Chan Ramen,7.7,2,1323,3.5,-73.9682,40.75613,TRUE,Midtown East
Highlands,7.2,3,404,4,-74.0010957,40.734345,FALSE,Greenwich Village
Hill Country Chicken,5.8,2,1162,3.5,-73.98924,40.74332,TRUE,NoMad
Holy Ground,7.8,3,67,4,-74.00859,40.71601,TRUE,TriBeCa
Hometown Bar-B-Que,8.9,2,1343,4,-74.0160489746129,40.6748965703426,TRUE,Carroll Gardens
Houdini Kitchen Laboratory,7.9,2,298,4,-73.902337,40.694148,TRUE,Bushwick
Hudson Malone,7,3,222,3.5,-73.9686406,40.7572621,FALSE,Midtown East
Hutong,6.7,4,278,3.5,-73.967443,40.761551,FALSE,Midtown East
Hwa Yuan Szechuan,8.3,3,267,4,-73.99598,40.7137,TRUE,Chinatown
Ichiran,7,2,817,4,-73.99062,40.74839,FALSE,Koreatown
Ikinari Steak,7.4,1,775,4,-73.98968,40.73088,TRUE,NoHo
Il Buco,8.8,4,673,4,-73.99299,40.72583,FALSE,NoHo
Il Buco Alimentari e Vineria,8.6,3,537,3.5,-73.992549,40.7264539,FALSE,NoHo
Il Mulino,7.9,4,547,4,-73.999159,40.729807,TRUE,Greenwich Village
Il Posto Accanto,8.3,3,216,4.5,-73.98403,40.72238,FALSE,East Village
Indian Road Café,7.6,2,601,4,-73.918440820966,40.872915157013,TRUE,Parkchester
Indochine,7.3,3,384,3.5,-73.99227,40.72917,FALSE,NoHo
Inti,7.1,2,344,3.5,-73.989576,40.767509,TRUE,Times Square Theatre District
Ippudo Westside,8.5,3,3671,4,-73.98661,40.76344,FALSE,Times Square Theatre District
Island Burgers & Shakes,5.2,1,683,4,-73.98802,40.76421,TRUE,Times Square Theatre District
Ivan Ramen,8.4,2,1289,3.5,-73.98454,40.72058,TRUE,Lower East Side
Ivan Ramen Slurp Shop,8.3,2,716,3,-73.9970355547241,40.7625346738425,TRUE,Hudson Yards
Izakaya Mew,6.9,2,2289,4,-73.9863203465939,40.7501853096499,TRUE,Midtown South
J.G. Melon,7.7,1,1272,3.5,-73.95931,40.77105,FALSE,Upper East Side
J.G. Melon Downtown,7.7,2,1272,3.5,-73.95931,40.77105,FALSE,Upper East Side
Jack's Wife Freda,7.2,2,1889,4,-73.997559999999993,40.72213,FALSE,NoLIta
Jack's Wife Freda West Village,7.4,1,1889,4,-73.997559999999993,40.72213,FALSE,NoLIta
Jacob Restaurant,7.6,1,348,4,-73.9439219,40.810025,FALSE,Harlem
Jacob's Pickles,7,3,4119,4,-73.9755284786224,40.7866504411994,TRUE,Upper West Side
JaJaJa,7.1,2,926,4.5,-73.9904247969389,40.7141530317142,TRUE,Lower East Side
James,7.9,3,449,3.5,-73.971489,40.678984,FALSE,Prospect Heights
Jams,4.5,3,320,3.5,-73.9765169803648,40.764741,FALSE,Times Square Theatre District
Javelina,5.7,3,459,3.5,-73.9873886108398,40.7368812561035,TRUE,Gramercy Park
Jeepney,7.9,3,1118,4,-73.9835395,40.730294,TRUE,East Village
Jeffrey’s Grocery,8,3,261,4,-73.987587,40.718101,TRUE,Lower East Side
Jin Ramen,7.6,3,899,4,-73.97695,40.78534,TRUE,Upper West Side
Jing Fong,7.6,1,2364,3.5,-73.9971831076206,40.7159552385198,TRUE,Chinatown
Jinya Ramen Bar,4.5,2,9964,4,-73.99015,40.73092,TRUE,NoHo
Joe & Pat’s,8.1,1,169,4,-73.98411,40.72892,TRUE,East Village
Joe’s Pizza,8.6,1,31,4,-75.1063182,40.1761372,TRUE,Stapleton
John Brown Smokehouse,7.5,1,897,4,-73.95009,40.7489,TRUE,Long Island City
Jones Wood Foundry,7.8,3,634,4,-73.9535711917713,40.7703854340118,TRUE,Upper East Side
Joseph Leonard,7.8,3,657,4,-74.001675412843,40.7336021670705,FALSE,Greenwich Village
Jun-Men Ramen,7.7,2,622,4,-74.000470000000007,40.748209,FALSE,Chelsea
Kaia Wine Bar,7.8,3,419,4,-73.95197,40.7819,TRUE,Upper East Side
Kajitsu,8.4,4,239,4,-73.9777215,40.7498614,FALSE,Murray Hill
Kang Ho Dong Baekjeong,8.3,3,1254,4,-73.9852144232788,40.747173576622,FALSE,Koreatown
Kanoyama,7.7,3,655,4,-73.986544028849,40.730545186039,TRUE,NoHo
Kashkaval Garden,7.6,2,576,4,-73.986144,40.766758,TRUE,Times Square Theatre District
Katz’s Deli,8.2,2,12194,4,-73.98743,40.722237,TRUE,NoLIta
Keens Steakhouse,8.5,4,2551,4,-73.98652,40.75071,FALSE,Midtown South
Kesté Pizza & Vino,7.9,2,1407,4,-74.00293,40.73154,TRUE,Greenwich Village
Khao Kang,8.4,2,231,4,-73.888039,40.743269,FALSE,Elmhurst
Khe-Yo,6.4,3,748,4,-74.008587,40.716906,TRUE,TriBeCa
Kiki’s,8.2,2,3,4.5,-73.99183,40.71436,TRUE,Chinatown
King,7.7,3,157,3.5,-74.00346,40.7275,FALSE,Hudson Square
Kings County Imperial,8.8,2,284,4,-73.95097,40.71512,TRUE,Williamsburg
Kingside,2.4,4,242,3.5,-73.978447,40.764653,TRUE,Times Square Theatre District
Kingston,7.5,2,143,3.5,-73.9535015,40.803361,TRUE,Harlem
Ko Bar,7.9,3,2,2.5,-73.83368,40.75896,FALSE,Flushing
Kung Fu Little Steamed Buns Ramen,7.3,2,312,3.5,-73.9694294705987,40.7592514705491,TRUE,Midtown East
Kunjip,7.6,2,992,2.5,-73.987239,40.747641,TRUE,Koreatown
Kyma,7.3,3,128,4,-73.99283,40.73904,FALSE,Flatiron district
Kyo Ya,8.5,4,455,4.5,-73.98534,40.7267,FALSE,East Village
L’Amico,7.6,3,598,4,-73.964757,40.715621,TRUE,Williamsburg
L’Artusi,8.5,3,1828,4.5,-74.00513,40.73372,TRUE,West Village
L’Express,7.7,3,1,5,-73.9982549,40.7145474,FALSE,Chinatown
L’Industrie Pizzeria,6.9,1,519,4.5,-73.95783,40.71162,TRUE,Williamsburg
La Bonbonniere,7.7,1,361,4,-74.004336265057,40.737769995088,FALSE,West Village
La Contenta,8.8,2,745,4.5,-73.98691,40.71873,TRUE,Lower East Side
La Esquina Brasserie,8,3,2030,3.5,-73.997529,40.721372,TRUE,Little Italy
La Esquina Cafe & Taqueria,7.9,3,2030,3.5,-73.997529,40.721372,TRUE,Little Italy
La Isla Cuchifritos,7.6,1,78,4,-73.94199,40.70099,FALSE,Williamsburg
La Mercerie,8,4,162,3.5,-74.0021909441629,40.7202236743825,FALSE,SoHo
La Morada,8.5,2,166,4.5,-73.92142,40.810552,TRUE,Harlem
La Pecora Bianca,6.9,3,558,4,-73.9892,40.74358,TRUE,NoMad
La Sirène,7.4,4,1600,4.5,-74.005708694458,40.7243642217227,FALSE,SoHo
La Slowteria,8.3,2,253,4,-73.9995680865082,40.675054752231,TRUE,Carroll Gardens
La Superior,7.4,1,573,3.5,-73.96363,40.71357,FALSE,Williamsburg
Lafayette,8.1,3,896,3.5,-73.993464,40.727617,FALSE,NoHo
Lalito,8,3,139,3.5,-73.99974,40.716289,TRUE,Chinatown
Lam Zhou Handmade Noodle,8.1,1,1824,4,-73.99675,40.7155,FALSE,Chinatown
Lamazou,8.3,1,284,4.5,-73.98162,40.74125,TRUE,Kips Bay
Lamoon,8.2,2,252,4.5,-73.883034010715,40.742890245749,TRUE,Elmhurst
Landmarc,5.8,3,1065,3.5,-73.98276,40.768939,TRUE,Times Square Theatre District
LaRina Pastificio & Vino,8.4,2,139,4,-73.9704132080078,40.6933631896973,FALSE,Fort Greene
Laut,7.1,2,1212,3.5,-73.9911,40.73756,TRUE,Union Square
Lavagna,7.9,3,379,4,-73.98226,40.72406,FALSE,East Village
Le Coucou,9.1,4,563,4,-74.00013,40.71909,FALSE,Little Italy
Le Crocodile,8.2,3,19,4.5,-73.957873,40.72191,FALSE,Greenpoint
Le Fanfare,7.6,2,178,4,-73.955558,40.736202,TRUE,Greenpoint
Le French Diner,8.6,2,117,4.5,-73.9879689992204,40.7218274586187,FALSE,NoLIta
Le Garage,7.4,1,148,4,-73.9265948743181,40.6993863968861,FALSE,Bushwick
Le Relais de Venise L’Entrecôte,7.7,2,807,4,-73.9717626571655,40.7577089110773,FALSE,Midtown East
Lee’s Tavern,8,2,55,4,-74.01209,40.67788,FALSE,Carroll Gardens
Legacy Records,8.4,3,126,3.5,-73.99822,40.757605,FALSE,Hudson Yards
Leuca,7,3,315,4,-73.956678,40.722121,TRUE,Greenpoint
Lexington Brass,4.8,3,850,3.5,-73.9729699790478,40.7552634948238,TRUE,Midtown East
Lido Harlem,7.4,2,973,4,-73.9548260014624,40.8049797781916,TRUE,Harlem
Lighthouse,8.8,2,261,4,-73.9539040490168,40.7104080536563,TRUE,Williamsburg
Lilia,9.3,3,792,4,-73.95236,40.71757,FALSE,Williamsburg
Little Owl,7.5,3,1267,4,-74.0053009986877,40.7323808291402,FALSE,Greenwich Village
Little Park,8.1,3,371,4,-74.00913,40.71521,FALSE,TriBeCa
Little Prince,6.5,3,316,4,-74.0027459,40.7267198,TRUE,SoHo
Llama Inn,8.8,3,469,4,-73.95051,40.71672,FALSE,Williamsburg
Lobster Joint,7.4,2,648,4,-73.95528,40.7354,TRUE,Greenpoint
Locanda Verde,7.9,3,1624,4,-74.010039072422,40.7198601300801,FALSE,TriBeCa
Locanda Vini e Olii,7.3,3,303,4,-73.962943,40.685007,FALSE,Prospect Heights
Lodge,4.5,2,21,4,-74.00414,40.75073,FALSE,Hudson Yards
Lokanta,8.4,2,103,4,-73.924873,40.761565,FALSE,Astoria
Lombardi's,7.8,2,6099,4,-73.9955956044561,40.7215934960083,TRUE,NoLIta
Loring Place,8.1,3,407,4.5,-73.9975357055664,40.7329940795898,FALSE,Greenwich Village
Los Tacos No. 1,8.5,1,2946,4.5,-74.0060838,40.7425547,FALSE,Meatpacking District
Lovely Day,7.4,2,352,3.5,-73.994275,40.721774,TRUE,NoLIta
Lowerline,8,2,161,4.5,-73.96324,40.67421,FALSE,Prospect Heights
Lucky Strike,7.5,3,281,3.5,-74.00348,40.72216,FALSE,SoHo
Lupe’s East LA Kitchen,7.4,2,383,3.5,-74.0045776,40.72369,TRUE,SoHo
M. Wells Steakhouse,7,4,407,3.5,-73.9422079,40.748388,FALSE,Long Island City
Mable's Smokehouse,7.5,2,838,4,-73.9570004492998,40.7211890204726,TRUE,Greenpoint
Macao Trading Co.,4,3,751,4,-74.003904,40.719623,TRUE,SoHo
Madangsui,7.4,3,679,3.5,-73.985679,40.75003,TRUE,Koreatown
Maison Kayser,7.8,3,126,3.5,-73.9911683,40.6921231,FALSE,Brooklyn Heights
Maison Pickle,6.1,3,975,4,-73.9780229034143,40.7870043970907,TRUE,Upper West Side
Maison Premiere,8,2,1143,4,-73.9614855,40.7142031,FALSE,Williamsburg
Málà Project,8.5,2,646,4,-73.98542,40.72713,TRUE,East Village
Malatesta Trattoria,7.3,2,1240,4,-74.00847,40.73285,FALSE,West Village
Mama Fina’s,8,2,156,4,-73.98226,40.72829,TRUE,East Village
Marc Forgione,8.2,4,919,4.5,-74.0095599,40.71647,FALSE,TriBeCa
Marea,8.8,4,2035,4,-73.9810554368179,40.7674213694566,FALSE,Times Square Theatre District
Margon,7.7,2,734,4,-73.98398,40.75787,TRUE,Times Square
Mari Vanna,8,3,653,4,-73.98858,40.73878,TRUE,Flatiron district
Marlow & Sons,8.9,3,531,4,-73.9658814005443,40.7106126934043,FALSE,Williamsburg
Marlow Bistro,7.7,3,283,4,-73.9641991912535,40.8028109023738,TRUE,Harlem
Marta,7.3,3,889,4,-73.9847936,40.7445882,FALSE,NoMad
Mary’s Fish Camp,7.7,3,597,4,-74.0032416,40.7348192,FALSE,West Village
Mayfield,8.1,2,522,4,-73.9565734863281,40.6748580932617,TRUE,Prospect Heights
Meadowsweet,8.4,3,389,4,-73.9632384,40.7103995,FALSE,Williamsburg
Mekelburg’s,8.3,2,261,4,-73.962334,40.687542,TRUE,Fort Greene
MeMe’s Diner,8.1,2,110,4,-73.9637159300486,40.6777327224006,TRUE,Prospect Heights
Mermaid Inn,7.8,2,1322,4,-73.98844,40.7269999,TRUE,NoHo
Mermaid Oyster Bar,6.9,3,1087,4,-74.00165,40.7287899,TRUE,Greenwich Village
Mexico Lindo,7.4,3,248,3.5,-73.97984,40.73981,TRUE,Kips Bay
Mighty Quinn’s Barbecue,7.9,2,1745,4,-73.988623,40.727574,TRUE,NoHo
Mike's Bistro,6.6,4,103,4,-73.971051,40.759407,FALSE,Midtown East
Mile End,8,3,770,3.5,-73.9870685,40.6875051,TRUE,Boerum Hill
Mimi Cheng’s,7.7,2,660,3.5,-73.986285,40.7305254,TRUE,NoHo
Minnie’s,7.2,2,11,5,-73.9901666,40.6776296,FALSE,Gowanus
Misi,8.2,3,304,4,-73.96662,40.71341,FALSE,Williamsburg
Miss Ada,8.4,2,222,4.5,-73.9723809,40.689436,FALSE,Fort Greene
Miss Lily’s,7.8,3,13,5,-73.988421,40.711744,FALSE,Lower East Side
Miss Lily’s 7A Cafe,7.5,2,666,4,-73.9837551,40.726019,TRUE,East Village
Mission Chinese Food,6.6,3,763,3,-73.98966,40.71386,TRUE,Lower East Side
Mission Chinese Food Brooklyn,6.9,2,385,4.5,-74.00072,40.72915,TRUE,Greenwich Village
Mister Dips,7.9,1,181,3.5,-73.9571206359,40.7222796349,FALSE,Greenpoint
Modern Love Brooklyn,7.8,2,494,4.5,-73.95109,40.70983,TRUE,Williamsburg
Mole,6,3,432,3.5,-74.00524,40.73822,TRUE,Meatpacking District
Momofuku Ko,8.6,4,309,4.5,-73.991682,40.724776,FALSE,NoLIta
Momofuku Noodle Bar,8.6,3,4271,3.5,-73.9844848239426,40.7292063820076,FALSE,East Village
Momofuku Ssäm Bar,8.4,3,2439,4,-73.985846,40.73169,FALSE,Gramercy Park
Momoya,7.8,2,640,4,-73.9966481924057,40.7426255196333,FALSE,Chelsea
Monkey Bar,7,3,279,3.5,-73.973216,40.759932,TRUE,Midtown East
Montesacro Pinseria,7.4,2,55,4.5,-73.95136,40.71338,FALSE,Williamsburg
Monument Lane,7.2,3,315,4.5,-74.00197,40.73778,FALSE,West Village
Mooncake Foods,7.4,2,515,4,-74.004562,40.7237776,TRUE,SoHo
Morandi,7.7,3,692,3.5,-74.00151,40.73534,TRUE,Greenwich Village
Morgan's BBQ,7.8,2,771,3.5,-73.974093,40.679879,TRUE,Prospect Heights
Motel Morris,7.5,2,169,4,-73.9980996,40.7409807,TRUE,Flatiron district
Moti Mahal Delux,7.9,3,473,4,-73.9605,40.76213,TRUE,Midtown East
Motorino,8,3,1075,3.5,-73.98381,40.73039,TRUE,East Village
My Cuban Spot,8.1,2,196,4.5,-73.9861538242469,40.6769086333056,TRUE,Gowanus
Nagomi,7.5,3,106,3,-74.00196,40.7264,TRUE,SoHo
Nakamura,7.3,2,377,4,-73.985115,40.717975,FALSE,Lower East Side
Nami Nori,7.6,2,134,4,-74.003212,40.730284,FALSE,Greenwich Village
Narcissa,6.7,3,503,3.5,-73.9909284946934,40.7279081084989,FALSE,NoHo
Nargis Bar & Grill,7.6,1,175,4,-73.979143,40.677857,FALSE,Park Slope
Naya,7.3,3,147,4.5,-74.0118362768599,40.7021301747589,TRUE,Financial District
Neil's Coffee Shop,7.3,2,201,3.5,-73.9630072,40.7689106,TRUE,Upper East Side
Neta,6.9,4,383,4,-73.99907,40.7335,FALSE,Greenwich Village
New Park Pizza,7.5,1,749,4,-73.8403776268684,40.6627403949909,TRUE,South Ozone Park
Nha Trang One,7.5,1,743,3.5,-73.9995299,40.71671,TRUE,Chinatown
Niche,7.8,2,100,4,-73.98518,40.71786,FALSE,Lower East Side
Niche Niche,8.3,3,54,3.5,-74.002643,40.727734,FALSE,Hudson Square
Nix,6.3,3,552,4,-73.99359,40.73323,FALSE,Union Square
Nobu 57,7.5,4,1198,4,-73.9765048613641,40.7636210840864,FALSE,Times Square Theatre District
Nom Wah Tea Parlor,7.8,1,1999,3.5,-73.998153857324,40.714490521829,FALSE,Chinatown
Nonono,8.3,2,715,4.5,-73.98499,40.74545,TRUE,NoMad
Noodle Village,7.9,1,1083,4,-73.998803,40.714167,TRUE,Chinatown
Noreetuh,7.7,3,432,4,-73.985221,40.727275,TRUE,East Village
North River Lobster Co.,6.8,3,542,3.5,-74.0028237923088,40.761968685867,TRUE,Hudson Yards
Novita,5.9,3,308,4,-73.98629,40.73918,TRUE,Gramercy Park
Nur,7.7,3,283,4,-73.9888,40.73854,FALSE,Flatiron district
Nyonya,7.4,1,2069,4,-73.9968228,40.7190148,TRUE,Little Italy
O Ya,7.6,4,250,4.5,-73.98319,40.74283,FALSE,Kips Bay
Oiji,8.5,3,505,4.5,-73.98585,40.72727,FALSE,East Village
Okonomi / Yuji Ramen,8.5,3,456,4.5,-73.9487843,40.712622,FALSE,Williamsburg
Old Rose,7.6,2,126,3.5,-74.00932,40.7383,TRUE,Meatpacking District
Old Town Bar,7.3,1,387,3.5,-73.989166,40.737594,FALSE,Union Square
Olio Pizza e Piu,1.1,3,2198,4,-73.999852,40.733826,TRUE,Greenwich Village
Olmsted,8.9,3,386,4,-73.96869,40.67713,FALSE,Prospect Heights
Om,8,2,479,4,-73.95364,40.77583,TRUE,Upper East Side
Omakase Room By Tatsu,7.7,4,127,4,-74.00042,40.73382,FALSE,Greenwich Village
Ops,8.5,2,129,4.5,-73.9171,40.70276,FALSE,Bushwick
Osteria Cotta,3.8,3,867,4,-73.97263,40.78554,TRUE,Upper West Side
Osteria Laguna,7.2,2,338,3.5,-73.9737998,40.750647,TRUE,Murray Hill
Otto,5.5,3,2121,3.5,-73.996197909787,40.7320605431463,TRUE,NoHo
Otto’s Tacos,7.4,1,748,4,-73.9875403,40.7291289539586,TRUE,NoHo
Oxalis,8.4,3,115,4.5,-73.9626279,40.673109,FALSE,Prospect Heights
Oxomoco,8.1,3,289,4,-73.95548,40.7299099,FALSE,Greenpoint
P.J. Clarke’s,7.5,3,898,3.5,-73.9680336,40.7589148,TRUE,Midtown East
Papatzul,4.2,3,429,3.5,-74.003677,40.722148,TRUE,SoHo
Paradou,5.2,3,56,4,-73.97386,40.64754,TRUE,Ditmas
Parm,8.1,2,740,3.5,-73.99567,40.72303,TRUE,NoLIta
Pasquale Jones,9.5,3,245,3.5,-73.9967492344452,40.7210341671446,FALSE,Little Italy
Pastis,7.7,3,163,4,-74.00695,40.73928,FALSE,Meatpacking District
Patsy’s Pizza,8.1,2,388,3.5,-73.96575,40.76177,TRUE,Midtown East
Paulie Gee’s,9,3,1238,4,-73.958568,40.729546,FALSE,Greenpoint
Peacefood Cafe,7.6,3,743,4,-73.9929751334153,40.7332670924819,TRUE,Union Square
Pearl Oyster Bar,8,3,825,4,-74.00197,40.7314099,FALSE,Greenwich Village
Peasant,7.7,4,691,3.5,-73.99428,40.72171,FALSE,NoLIta
Pepe Rosso To Go,7.6,1,356,4,-74.00163,40.72723,TRUE,SoHo
Peppa’s Jerk Chicken,7.9,1,24,2.5,-73.9129359,40.635902,FALSE,Ditmas
Per Se,8.5,4,1656,4.5,-73.9827629623657,40.7681528889558,FALSE,Times Square Theatre District
Pera Mediterranean Brasserie,6.9,3,403,3.5,-73.9795,40.75228,TRUE,Midtown
Periyali,7.7,3,263,4,-73.9929678154494,40.7406298582957,FALSE,Flatiron district
Perry St,6.8,4,936,4,-74.00971,40.73442,FALSE,West Village
Peter Luger Steak House,8.4,4,5721,4,-73.962478,40.709945,FALSE,Williamsburg
Phayul,8.3,2,286,4,-73.891236,40.7471617,FALSE,Jackson Heights
Pheasant,7.5,3,73,4.5,-73.9452,40.7185,FALSE,Greenpoint
Pho Bang,8,2,541,4,-73.99657,40.71952,FALSE,Little Italy
Pho Bar,7.7,2,233,4,-73.9990079,40.7152346,TRUE,Chinatown
Pianos,7.1,2,886,3,-73.98775,40.72104,TRUE,NoLIta
Piccolo Angolo,7.8,3,548,4,-74.0058052539825,40.7378601855952,TRUE,West Village
Pier A Harbor House,7,2,642,3,-74.018051,40.704364,FALSE,Financial District
Pietro’s,7.6,3,68,3.5,-73.97443,40.7605,FALSE,Midtown East
Pinche Taqueria,7,1,365,4,-73.98917,40.72504,TRUE,NoHo
Pizza Beach,5.3,3,202,3.5,-73.988731,40.72134,TRUE,NoLIta
PizzArte,7.7,2,1089,4,-73.9776668697596,40.7629335072372,TRUE,Times Square Theatre District
Poke Restaurant,7.2,2,465,4,-73.95057,40.7766,FALSE,Upper East Side
Pokito,7.4,2,112,4.5,-73.96184,40.71162,TRUE,Williamsburg
Popina,7.8,2,54,4.5,-74.0014251909241,40.687361962701,TRUE,Cobble Hill
Porchetta,3,1,302,4.5,-73.9965565,40.7192766,FALSE,Little Italy
Porchlight,7.7,2,219,3.5,-74.0050735,40.7518044,FALSE,Hudson Yards
Porsena,7.8,4,262,3.5,-73.98946,40.72866,TRUE,NoHo
Poulette,7.9,2,62,4,-73.96864,40.75394,TRUE,Midtown East
Prince Street Pizza,8.6,1,3490,4.5,-73.9944863319397,40.7229087705545,TRUE,NoLIta
Prova Pizzabar,7,2,26,3.5,-73.98939,40.75238,TRUE,Midtown South
Pulqueria,4.1,3,483,3.5,-73.99819,40.71448,TRUE,Chinatown
Purbird,8,2,464,4,-73.97518,40.67985,TRUE,Prospect Heights
Pylos,7.7,3,1117,4.5,-73.98415,40.72608,TRUE,East Village
Quality Eats,8.4,3,423,4,-74.00004,40.7345,TRUE,Greenwich Village
Quality Italian,7.8,4,1069,4,-73.9767805051616,40.7644044527436,TRUE,Times Square Theatre District
Quatorze Bis,7.5,4,639,3,-73.97209,40.75664,FALSE,Midtown East
Queens Comfort,7.7,3,2122,4,-73.91694,40.764527,TRUE,Astoria
Racines,4.4,3,132,4,-74.00752,40.71463,FALSE,TriBeCa
Radiance Tea House,7.6,2,850,4,-73.98065,40.7639799,FALSE,Times Square Theatre District
Rai Rai Ken,7.6,1,834,3.5,-73.9858,40.72924,TRUE,East Village
Raku,8.1,2,1066,4.5,-73.9866526052356,40.7264988089246,TRUE,East Village
Ramen Setagaya,7.3,2,643,3.5,-73.9882649390785,40.728708374845,TRUE,NoHo
Ramen Yebisu,3,2,259,4,-73.96115,40.7147999,TRUE,Williamsburg
Raoul’s,8.4,4,491,4,-74.00216,40.72615,TRUE,SoHo
Razza,9,2,851,4,-74.0441924355125,40.7177490485075,TRUE,Jersey City
Red Paper Clip,7.7,4,46,4.5,-74.0056,40.73311,FALSE,West Village
Red Rooster,7.4,3,3238,3.5,-73.94488,40.80815,FALSE,Harlem
RedFarm,7.9,3,662,3.5,-74.00652,40.7342,FALSE,West Village
Reservoir,7.1,1,226,3.5,-73.993751,40.733215,TRUE,Union Square
Rezdôra,7.8,3,194,4,-73.9891,40.73901,FALSE,Flatiron district
RH Rooftop Restaurant,6.6,3,297,4,-74.00639,40.73985,FALSE,Meatpacking District
Rider,6.8,3,174,4.5,-73.96136,40.71887,FALSE,Williamsburg
Riki,7.4,2,361,3.5,-73.9738540649414,40.7532844543457,FALSE,Midtown East
ROKC,7.9,2,407,4.5,-73.9522425,40.8235051,FALSE,Harlem
Roll N Roaster,8.2,2,1085,4,-73.9396257952115,40.5840481565596,FALSE,Sheepshead Bay
Roman’s,7.2,2,49,5,-73.99954,40.60755,FALSE,Bay Ridge
Rose's,7.4,2,88,3.5,-73.9733657836914,40.6790542602539,FALSE,Prospect Heights
Rosemary’s,7.1,3,2,4.5,-73.85945,40.83249,FALSE,Parkchester
Rosie's,6.9,3,700,4,-73.99079,40.72492,FALSE,NoLIta
Rotisserie Georgette,5.9,4,208,4,-73.971732,40.764352,TRUE,Midtown East
Rubirosa,9.2,3,2208,4.5,-73.99622,40.72275,FALSE,NoLIta
Ruby’s Cafe,7.3,2,1189,4,-73.996326,40.7223288,TRUE,NoLIta
Rucola,6.9,3,492,4,-73.98587,40.68562,FALSE,Boerum Hill
Runner & Stone,6.9,3,292,4,-73.985919,40.67721,FALSE,Gowanus
Russ & Daughters,8.6,2,2211,4.5,-73.9882828294139,40.722589,FALSE,NoLIta
Russ & Daughters Cafe,8.2,2,999,4,-73.9895758930263,40.7196253171697,FALSE,NoLIta
Sadelle’s,8.5,3,626,3.5,-74.00013,40.72624,FALSE,SoHo
Saggio Restaurant,7.4,2,600,4,-73.9395604556239,40.8514099281625,TRUE,Harlem
Saint Julivert Fisherie,7.7,3,37,4.5,-73.99565,40.68787,FALSE,Cobble Hill
SakaMai,7.3,3,668,4,-73.9881407239426,40.7209536656701,FALSE,NoLIta
Sally Roots,7.7,2,253,3.5,-73.916372,40.702756,FALSE,Bushwick
Salt & Fat,6.8,2,466,4,-73.9613511,40.71453,TRUE,Williamsburg
Samurai Mama,7.1,2,592,4,-73.960325717926,40.7140208838114,FALSE,Williamsburg
Santina,8,3,660,3.5,-74.008443,40.739618,FALSE,Meatpacking District
Sauvage,8,3,218,3.5,-73.9518526761375,40.72356122013,FALSE,Greenpoint
Saxon + Parole,7.5,4,777,4,-73.99247,40.72521,FALSE,NoLIta
Scalinatella,7.3,3,270,4,-73.9654829353094,40.7627823203802,TRUE,Midtown East
Scampi,6,3,247,4,-73.99358,40.73902,TRUE,Flatiron district
Scarr’s Pizza,6.3,1,387,4,-73.9914,40.71534,TRUE,Chinatown
Seamore’s,8.1,3,29,5,-74.0063,40.73411,FALSE,West Village
Sel Rrose,6.6,2,489,4,-73.993839,40.7200099,FALSE,Little Italy
Selamat Pagi,8.1,2,264,4,-73.944633,40.723255,FALSE,Greenpoint
Sfoglia,7.9,4,276,4,-73.952719,40.783535,FALSE,Upper East Side
Shabushabu Macoron,8.6,4,68,4.5,-73.99086,40.71909,FALSE,Little Italy
Shake Shack,8.7,1,348,4,-73.9939538,40.7030151,TRUE,Fulton Ferry
Shake Shack Times Square,7.7,1,3031,4,-73.9891822636127,40.758412133689,TRUE,Times Square
Shu Jiao Fu Zhou Cuisine,8.2,1,841,4.5,-73.9916928979573,40.7184290357839,FALSE,Little Italy
Shuka,7.6,2,460,4,-74.00283,40.72707,FALSE,Hudson Square
Shuko,9.3,4,282,4,-73.9914635674129,40.7334269431242,FALSE,Union Square
Simon & The Whale,8.3,3,190,4,-73.984254,40.739848,FALSE,Gramercy Park
Sisters,7.7,3,294,3,-73.965180899999993,40.6828717,FALSE,Prospect Heights
Socarrat Nolita,7.5,3,487,4,-73.99504,40.724483,TRUE,NoLIta
Somtum Der,7.6,3,727,4,-73.9842741682317,40.7252151982238,TRUE,East Village
Sons of Essex,6.1,3,1241,4,-73.987774,40.720315,TRUE,Lower East Side
Soogil,7.1,3,112,4,-73.98838,40.72551,TRUE,NoHo
Sorbillo Pizzeria,7.7,2,175,4,-73.99218,40.726,TRUE,NoHo
Souvlaki GR,7.3,1,880,4,-73.98711,40.72122,TRUE,NoLIta
Sparks Steak House,2,4,927,3.5,-73.972329,40.75303,FALSE,Midtown East
Speedy Romeo,8.7,3,308,4,-73.98514,40.71951,TRUE,Lower East Side
Speedy Romeo LES,7.8,2,308,4,-73.98514,40.71951,TRUE,Lower East Side
Spicy Village,7.5,1,649,4,-73.99327,40.71695,TRUE,Chinatown
SRO,5.6,3,2,1,-73.92515,40.687461,FALSE,Bushwick
St Tropez,7.1,2,151,4.5,-74.00386,40.73704,TRUE,West Village
St. Anselm,8.8,3,817,4,-73.95604,40.7143299,FALSE,Williamsburg
Sticky's Finger Joint,7.8,1,160,4,-74.0090160288361,40.7093087362013,TRUE,Financial District
Stone Park Cafe,7.7,3,913,4,-73.98332,40.67297,FALSE,Park Slope
Strip House,7.8,4,980,4,-73.99337,40.73445,TRUE,Union Square
Sugarfish,8.1,2,820,4,-73.98882,40.73901,FALSE,Flatiron district
Sunday in Brooklyn,7.8,3,783,4,-73.965322,40.714145,TRUE,Williamsburg
Sushi Azabu,8.5,4,431,4,-74.0098838048935,40.7222930324682,TRUE,Hudson Square
Sushi By Bou,7.8,3,266,4.5,-73.9937,40.74094,FALSE,Flatiron district
Sushi By M,8.2,3,416,4.5,-73.99027,40.72666,FALSE,NoHo
Sushi Ishikawa,7.8,3,211,4.5,-73.9538981,40.768783,FALSE,Upper East Side
Sushi Katsuei,8.4,3,435,4,-73.9785903,40.6707147,FALSE,Park Slope
Sushi Nakazawa,8.7,4,1387,4.5,-74.0045493828034,40.7317465228689,FALSE,Greenwich Village
Sushi Of Gari,7.8,4,680,4,-73.98957,40.76072,TRUE,Times Square
Sushi of Gari 46,7.8,4,680,4,-73.98957,40.76072,TRUE,Times Square
Sushi Of Gari Tribeca,7.8,4,139,3.5,-74.0084709183102,40.716780367583,TRUE,TriBeCa
Sushi on Jones,7.7,3,438,4,-73.99202,40.72664,TRUE,NoHo
Sushi Seki Chelsea,8.3,4,164,3.5,-73.996266,40.7442322,FALSE,Chelsea
Sushi Seki Upper East Side,9,4,1093,4.5,-74.00167,40.72803,FALSE,Hudson Square
Suzume,7.8,2,301,4,-73.9494479,40.7131652,FALSE,Williamsburg
Sweet Chick,8.1,2,1637,4,-73.98739,40.7217399,TRUE,NoLIta
Sylvia’s Restaurant,7,2,1833,3.5,-73.944404,40.808609,FALSE,Harlem
Tabata Noodle,7,1,609,3.5,-73.993382,40.756877,TRUE,Times Square
Taboon,7.7,3,654,4,-73.9909893717713,40.7661052157931,FALSE,Times Square Theatre District
Tacombi @ Fonda Nolita,7.6,1,1116,3.5,-73.9939028,40.7240304,TRUE,NoLIta
Tacoway Beach,8.3,1,239,4,-73.81211,40.58884,FALSE,South Ozone Park
Taim Falafel,8,1,62,3.5,-74.00767,40.70769,TRUE,Financial District
TAK Room,7,4,112,4,-73.9923629760742,40.7491302490234,FALSE,Koreatown
Takahachi,7.5,2,899,4,-74.00822,40.71393,FALSE,TriBeCa
Takashi,8.2,3,978,4,-74.0065048,40.7313524,FALSE,West Village
Taladwat,8.4,2,249,4.5,-73.98936,40.76262,TRUE,Times Square Theatre District
Tang Hotpot,7.4,3,246,4,-73.99435,40.71866,TRUE,Little Italy
Tanoreen,8.5,3,832,4,-74.02775,40.6308,TRUE,Bay Ridge
Tanoshi Sushi,8.5,3,638,4.5,-73.952815,40.767568,FALSE,Upper East Side
Taqueria Diana,8.2,1,722,4,-73.9879844318771,40.7284337609976,TRUE,NoHo
Taqueria St. Marks,7.2,1,428,4,-73.9856138085992,40.7278587780221,TRUE,East Village
Tartine,7.7,2,984,4,-74.00344,40.7362899,TRUE,West Village
Tartinery,4.2,3,368,4,-74.01588,40.712338,FALSE,TriBeCa
Tasty Hand-Pulled Noodles,7,1,1590,4,-73.99787,40.7142,TRUE,Chinatown
Tatiana Restaurant & Nightclub,7.5,3,653,4,-73.98858,40.73878,TRUE,Flatiron district
Tavern On The Green,1,4,1465,3.5,-73.9776,40.772194,FALSE,Times Square Theatre District
Tavola,6.7,2,958,4,-73.994516,40.755403,FALSE,Hudson Yards
Tequila Park Taqueria,6,3,608,4,-73.98817,40.72711,TRUE,NoHo
Terra,6.6,4,363,3.5,-74.00647,40.71928,TRUE,TriBeCa
Terroir Tribeca,8,3,284,4,-74.0099987815497,40.718804998517,FALSE,TriBeCa
Tetsu,7.6,3,132,3.5,-74.0052,40.71733,TRUE,TriBeCa
The Bao,8.2,2,1206,4,-73.9889199,40.72939,TRUE,NoHo
The Black Ant,5.8,3,532,4,-73.98952,40.72578,TRUE,NoHo
The Boil,5.8,3,1897,4.5,-73.99339,40.71974,FALSE,Little Italy
The Bombay Bread Bar,7.4,2,220,3.5,-74.0031,40.72534,TRUE,SoHo
The Breslin,6.4,3,1579,3.5,-73.9878543,40.7457012,FALSE,NoMad
The Brew Inn,7.6,2,152,4,-73.954101,40.731044,FALSE,Greenpoint
The Brooklyn Barge,7.3,2,154,3.5,-73.961047,40.729108,FALSE,Greenpoint
The Brooklyneer,7.4,2,253,3.5,-74.0045657,40.7286219,TRUE,Hudson Square
The Clam,8,3,357,4,-74.0068030357639,40.7303076612002,FALSE,Hudson Square
The Clocktower,8.2,4,379,4,-73.98747,40.74133,FALSE,Flatiron district
The East Pole,7.4,3,252,3.5,-73.9658007,40.7662355,FALSE,Upper East Side
The Eddy,8.5,3,358,4.5,-73.986646,40.7264594,FALSE,East Village
The Fly,8.4,3,30,3.5,-73.95848,40.68191,FALSE,Prospect Heights
The Four Horsemen,8.6,3,182,4.5,-73.95732,40.71305,FALSE,Williamsburg
The Fulton,8.5,3,170,3.5,-74.0010633899353,40.7053694327276,FALSE,Seaport District
The Grill,9.2,4,189,4,-73.971892,40.758323,FALSE,Midtown East
The Happiest Hour,7.5,2,400,3.5,-73.999742,40.734883,TRUE,Greenwich Village
The Lambs Club,7.8,4,591,3.5,-73.9845907254059,40.7565103875392,FALSE,Steinway
The Little Beet Table,7.7,3,537,4,-73.98545,40.74116,FALSE,NoMad
The Marshal,8,3,723,4,-73.99396,40.76122,TRUE,Times Square
The Meatball Shop,7.9,3,2735,4,-73.988746,40.721651,TRUE,NoLIta
The Meatball Shop Chelsea,7.7,2,875,4,-74.0015369,40.7459138,TRUE,Chelsea
The Mermaid Inn,7.7,3,1322,4,-73.98844,40.7269999,TRUE,NoHo
The Modern,7.8,4,1012,4.5,-73.97709,40.7610699,FALSE,Times Square Theatre District
The National,7.8,3,639,3,-73.97209,40.75664,FALSE,Midtown East
The Odeon,7.2,4,640,4,-74.00792,40.71692,TRUE,TriBeCa
The Palm Too,7.6,3,227,3.5,-73.97067,40.75146,TRUE,Murray Hill
The Penrose,7.5,1,1178,4,-73.953115,40.775427,FALSE,Upper East Side
The Polynesian,7.8,2,320,4,-73.9930226198586,40.7585126468162,FALSE,Times Square
The Riddler,8.1,4,23,4,-74.0038923,40.7369462,FALSE,West Village
The Smith,7.2,2,1950,3.5,-73.9886217,40.7310675,TRUE,NoHo
The Smith Lincoln Center,7.5,2,1678,4,-73.9818377981476,40.7716201269986,TRUE,Times Square Theatre District
The Smith Midtown,7.7,3,2621,4,-73.967868,40.755165,TRUE,Midtown East
The Spaniard,6.8,2,248,4,-74.0021829,40.7327497,FALSE,Greenwich Village
The Ten Bells,8,2,440,3.5,-73.98985,40.717801,FALSE,Lower East Side
The Turk’s Inn,7.2,3,19,2.5,-73.9990396918217,40.7659591132619,FALSE,Hudson Yards
Thistle Hill Tavern,7.1,3,919,4.5,-74.0095599,40.71647,FALSE,TriBeCa
Thursday Kitchen,8.1,2,1324,4.5,-73.9838,40.7275,FALSE,East Village
Tia Pol,7.8,2,700,4,-74.00481,40.7473,FALSE,Chelsea
Tijuana Picnic,7.9,3,311,3,-73.9873657,40.7207634,TRUE,NoLIta
Tipsy Parson,5.4,3,579,3.5,-74.0026,40.74423,FALSE,Chelsea
Tokyo Record Bar,8.3,3,140,4,-74.0001550748959,40.7305654051364,FALSE,Greenwich Village
Toloache,7.9,3,1967,4,-73.9855741,40.762325,TRUE,Times Square Theatre District
Tom’s Restaurant,7.7,1,1297,4,-73.963439,40.674491,TRUE,Prospect Heights
Tomoe,7.7,4,944,4,-74.0001599,40.7277,FALSE,SoHo
Toro,7.8,3,495,3.5,-74.00779,40.74303,FALSE,Meatpacking District
Tortaria,7.6,1,694,3.5,-73.99304,40.73387,FALSE,Union Square
Tortilleria Los Hermanos,8.1,1,713,4,-73.92198,40.7066299,FALSE,Bushwick
Totonno Pizzeria Napolitana,8.6,2,809,4,-73.983811,40.578805,FALSE,Sheepshead Bay
Totto Ramen,7.8,3,5463,4,-73.98759,40.76444,FALSE,Times Square Theatre District
Totto Ramen East,7.9,2,1142,4,-73.9679722894107,40.7562184833974,TRUE,Midtown East
Traif,8.2,2,1856,4.5,-73.958872,40.710658,FALSE,Williamsburg
Trapizzino,7.7,1,226,4.5,-73.98894,40.72043,TRUE,NoLIta
Trattoria L’incontro,8.1,3,926,4.5,-73.9105868339539,40.7763330374196,FALSE,Astoria
Tsurutontan,7.6,3,1849,4,-73.9910699,40.73678,TRUE,Union Square
Tsushima,7,1,241,3.5,-73.9727916,40.7516558,TRUE,Murray Hill
Turntable Chicken Jazz,7.5,2,2030,4,-73.98649,40.74828,FALSE,Koreatown
Two Hands,7.9,2,321,3.5,-74.00547,40.71782,FALSE,TriBeCa
Txikito,7.4,4,347,3.5,-74.000468,40.74739,FALSE,Chelsea
U-Gu,7.7,2,128,4.5,-73.96284,40.69393,TRUE,Fort Greene
Uluh,7.6,3,271,4,-73.9866071,40.7293403,FALSE,NoHo
Umami Burger,3.8,2,306,3,-74.015913,40.713225,TRUE,TriBeCa
Una Pizza Napoletana,8.1,2,117,3.5,-73.98864,40.72175,FALSE,NoLIta
Uncle Boons,9.3,3,1006,4,-73.9943286309159,40.7211328622237,FALSE,NoLIta
Union Square Cafe,9.2,4,1219,4,-73.987874,40.73775,FALSE,Gramercy Park
Uogashi,6.2,3,76,4.5,-73.98671,40.76326,FALSE,Times Square Theatre District
Up Thai,7.1,2,2252,4.5,-73.9576330868512,40.7698275926665,TRUE,Upper East Side
Upland,7.8,3,1010,4,-73.9846396,40.7418912,FALSE,NoMad
Upstate Craft Beer & Oyster Bar,8.5,2,1848,4.5,-73.986557,40.726373,FALSE,East Village
Ushiwakamaru,7.8,3,171,4,-74.0009234316419,40.7461547329618,TRUE,Chelsea
Uva,7.3,3,2345,4,-73.95566,40.7722,FALSE,Upper East Side
Vatan,7.7,2,647,4,-73.9803699,40.74236,FALSE,Kips Bay
Vaucluse,7.8,4,243,4,-73.96758,40.76515,TRUE,Midtown East
Veselka,7.8,2,2573,4,-73.9869689941406,40.7289505004883,TRUE,NoHo
Via Carota,8.6,3,543,4,-74.00369,40.7331,FALSE,Greenwich Village
Via Quadronno,7.9,4,523,4,-73.96514,40.77277,TRUE,Upper East Side
Vic’s,7.4,3,7,4.5,-73.8573208,41.30624,TRUE,Parkchester
Village Yokocho,7.1,2,756,3.5,-73.9891899,40.7298,FALSE,NoHo
Vinatería,7.7,3,445,4,-73.9540110111145,40.8064392068585,TRUE,Harlem
Vinegar Hill House,8.2,3,663,3.5,-73.98124,40.70275,FALSE,Downtown Brooklyn
Violet,6.2,2,68,3.5,-73.983667,40.72473,FALSE,East Village
Virginia’s,7.7,3,127,5,-73.97956,40.75562,FALSE,Steinway
Walker’s,7.3,2,292,4,-74.00707,40.71972,TRUE,TriBeCa
Wallflower,7.3,4,246,4,-74.0021002,40.7377405,FALSE,West Village
Walter Foods,7.6,3,500,4,-73.958488,40.713588,FALSE,Williamsburg
Walter's,7.8,2,514,4,-73.973258972168,40.6894111633301,FALSE,Fort Greene
West-Bourne,8.3,2,136,4.5,-74.00193,40.72687,FALSE,SoHo
Westville,7.6,2,1034,4,-73.98213,40.72847,TRUE,East Village
Westville Chelsea,7.9,2,1113,4,-74.00007,40.74175,TRUE,Chelsea
Westville East,7.7,2,1034,4,-73.98213,40.72847,TRUE,East Village
While We Were Young,4.6,2,340,4,-74.00272,40.73437,FALSE,Greenwich Village
Wildair,8.9,3,180,4,-73.98919771717,40.7197229753629,FALSE,NoLIta
Wildwood Barbecue,2.1,3,3035,4,-73.9608729269837,40.818098338924,TRUE,Harlem
Wilfie & Nell,7.1,2,350,3.5,-74.003069,40.734078,FALSE,Greenwich Village
Williamsburg Pizza,7.6,1,225,4,-73.99123,40.71822,TRUE,Little Italy
Win Son,8.5,2,483,4,-73.94339,40.70747,FALSE,Williamsburg
Win Son Bakery,8.7,2,95,4,-73.94302,40.70721,FALSE,Williamsburg
Wogies,7,1,130,3.5,-74.01342,40.70723,TRUE,Financial District
Wokuni,7.7,2,221,4,-73.9773529,40.7492189,FALSE,Murray Hill
Wondee Siam,8,2,998,4,-73.98747,40.76495,TRUE,Times Square Theatre District
Xi’an Famous Foods,7.6,1,997,4,-73.997342,40.715082,FALSE,Chinatown
Yakitori Totto,8,3,1307,4,-73.983114,40.765375,FALSE,Times Square Theatre District
Yama Japanese Restaurant,7,3,425,3.5,-73.98766,40.73589,FALSE,Gramercy Park
Yefsi,8.1,3,312,4,-73.9509195,40.7710007,TRUE,Upper East Side
Yves,6.5,3,71,4,-74.00996,40.72021,TRUE,TriBeCa
Zadie's Oyster Room,7.3,3,84,4.5,-73.98274,40.72979,FALSE,East Village
Zaitzeff,6.1,3,628,4,-73.984469,40.727942,TRUE,East Village
Zaragoza Grocery,7.3,1,302,4,-73.980949,40.730102,FALSE,East Village
Zero Otto Nove,8.2,3,477,4,-73.9914887388588,40.7407551035259,TRUE,Flatiron district
